  {"class":"VERSION","release":"3.17","rev":"3.17","proto_major":3,"proto_minor":12}
{"class":"DEVICES","devices":[{"class":"DEVICE","path":"/dev/ttyS3","driver":"MTK-3301","subtype":"MT3333_AXN5.1.8___F0-3429","activated":"2022-08-26T11:20:57.889Z","flags":1,"native":0,"bps":9600,"parity":"N","stopbits":1,"cycle":1.00,"mincycle":0.20}]}
{"class":"WATCH","enable":true,"json":true,"nmea":false,"raw":0,"scaled":false,"timing":false,"split24":false,"pps":false}
{"class":"TPV","device":"/dev/ttyS3","mode":1,"time":"1980-01-06T00:22:47.868Z","ept":0.005}
{"class":"GST","device":"/dev/ttyS3","time":"1980-01-06T01:00:16.868Z","rms":0.000,"major":99999.000,"minor":99999.000,"orient":0.000,"lat":99999.000,"lon":99999.000,"alt":99999.000}
{"class":"TPV","device":"/dev/ttyS3","mode":1,"time":"1980-01-06T00:22:48.868Z","ept":0.005}
{"class":"GST","device":"/dev/ttyS3","time":"1980-01-06T01:00:18.868Z","rms":0.000,"major":99999.000,"minor":99999.000,"orient":0.000,"lat":99999.000,"lon":99999.000,"alt":99999.000}
{"class":"TPV","device":"/dev/ttyS3","mode":1,"time":"1980-01-06T00:22:49.868Z","ept":0.005}
{"class":"GST","device":"/dev/ttyS3","time":"1980-01-06T01:00:20.868Z","rms":0.000,"major":99999.000,"minor":99999.000,"orient":0.000,"lat":99999.000,"lon":99999.000,"alt":99999.000}
{"class":"TPV","device":"/dev/ttyS3","mode":1,"time":"1980-01-06T00:22:50.868Z","ept":0.005}
{"class":"GST","device":"/dev/ttyS3","time":"1980-01-06T01:00:22.868Z","rms":0.000,"major":99999.000,"minor":99999.000,"orient":0.000,"lat":99999.000,"lon":99999.000,"alt":99999.000}
{"class":"TPV","device":"/dev/ttyS3","mode":1,"time":"1980-01-06T00:22:51.868Z","ept":0.005}
{"class":"GST","device":"/dev/ttyS3","time":"1980-01-06T01:00:24.868Z","rms":0.000,"major":99999.000,"minor":99999.000,"orient":0.000,"lat":99999.000,"lon":99999.000,"alt":99999.000}
{"class":"TPV","device":"/dev/ttyS3","mode":1,"time":"1980-01-06T00:22:52.868Z","ept":0.005}
{"class":"GST","device":"/dev/ttyS3","time":"1980-01-06T01:00:26.868Z","rms":0.000,"major":99999.000,"minor":99999.000,"orient":0.000,"lat":99999.000,"lon":99999.000,"alt":99999.000}
{"class":"TPV","device":"/dev/ttyS3","mode":1,"time":"1980-01-06T00:22:53.868Z","ept":0.005}
{"class":"GST","device":"/dev/ttyS3","time":"1980-01-06T01:00:28.868Z","rms":0.000,"major":99999.000,"minor":99999.000,"orient":0.000,"lat":99999.000,"lon":99999.000,"alt":99999.000}
{"class":"TPV","device":"/dev/ttyS3","mode":1,"time":"1980-01-06T00:22:54.868Z","ept":0.005}
{"class":"GST","device":"/dev/ttyS3","time":"1980-01-06T01:00:30.868Z","rms":0.000,"major":99999.000,"minor":99999.000,"orient":0.000,"lat":99999.000,"lon":99999.000,"alt":99999.000}
{"class":"TPV","device":"/dev/ttyS3","mode":1,"time":"1980-01-06T00:22:55.868Z","ept":0.005}
{"class":"GST","device":"/dev/ttyS3","time":"1980-01-06T01:00:32.868Z","rms":0.000,"major":99999.000,"minor":99999.000,"orient":0.000,"lat":99999.000,"lon":99999.000,"alt":99999.000}
{"class":"TPV","device":"/dev/ttyS3","mode":1,"time":"1980-01-06T00:22:56.868Z","ept":0.005}
{"class":"GST","device":"/dev/ttyS3","time":"1980-01-06T01:00:34.868Z","rms":0.000,"major":99999.000,"minor":99999.000,"orient":0.000,"lat":99999.000,"lon":99999.000,"alt":99999.000}
{"class":"TPV","device":"/dev/ttyS3","mode":1,"time":"1980-01-06T00:22:57.868Z","ept":0.005}
{"class":"GST","device":"/dev/ttyS3","time":"1980-01-06T01:00:36.868Z","rms":0.000,"major":99999.000,"minor":99999.000,"orient":0.000,"lat":99999.000,"lon":99999.000,"alt":99999.000}
{"class":"TPV","device":"/dev/ttyS3","mode":1,"time":"1980-01-06T00:22:58.868Z","ept":0.005}
{"class":"GST","device":"/dev/ttyS3","time":"1980-01-06T01:00:38.868Z","rms":0.000,"major":99999.000,"minor":99999.000,"orient":0.000,"lat":99999.000,"lon":99999.000,"alt":99999.000}
{"class":"TPV","device":"/dev/ttyS3","mode":1,"time":"1980-01-06T00:22:59.868Z","ept":0.005}
{"class":"GST","device":"/dev/ttyS3","time":"1980-01-06T01:01:20.868Z","rms":0.000,"major":99999.000,"minor":99999.000,"orient":0.000,"lat":99999.000,"lon":99999.000,"alt":99999.000}
{"class":"TPV","device":"/dev/ttyS3","mode":1,"time":"1980-01-06T00:23:00.868Z","ept":0.005}
{"class":"GST","device":"/dev/ttyS3","time":"1980-01-06T01:01:22.868Z","rms":0.000,"major":99999.000,"minor":99999.000,"orient":0.000,"lat":99999.000,"lon":99999.000,"alt":99999.000}
{"class":"TPV","device":"/dev/ttyS3","mode":1,"time":"1980-01-06T00:23:01.868Z","ept":0.005}
{"class":"GST","device":"/dev/ttyS3","time":"1980-01-06T01:01:24.868Z","rms":0.000,"major":99999.000,"minor":99999.000,"orient":0.000,"lat":99999.000,"lon":99999.000,"alt":99999.000}
{"class":"TPV","device":"/dev/ttyS3","mode":1,"time":"1980-01-06T00:23:02.868Z","ept":0.005}
{"class":"GST","device":"/dev/ttyS3","time":"1980-01-06T01:01:26.868Z","rms":0.000,"major":99999.000,"minor":99999.000,"orient":0.000,"lat":99999.000,"lon":99999.000,"alt":99999.000}
{"class":"TPV","device":"/dev/ttyS3","mode":1,"time":"1980-01-06T00:23:03.868Z","ept":0.005}
{"class":"GST","device":"/dev/ttyS3","time":"1980-01-06T01:01:28.868Z","rms":0.000,"major":99999.000,"minor":99999.000,"orient":0.000,"lat":99999.000,"lon":99999.000,"alt":99999.000}
{"class":"TPV","device":"/dev/ttyS3","mode":1,"time":"1980-01-06T00:23:04.868Z","ept":0.005}
{"class":"GST","device":"/dev/ttyS3","time":"1980-01-06T01:01:30.868Z","rms":0.000,"major":99999.000,"minor":99999.000,"orient":0.000,"lat":99999.000,"lon":99999.000,"alt":99999.000}
{"class":"TPV","device":"/dev/ttyS3","mode":1,"time":"1980-01-06T00:23:05.868Z","ept":0.005}
{"class":"GST","device":"/dev/ttyS3","time":"1980-01-06T01:01:32.868Z","rms":0.000,"major":99999.000,"minor":99999.000,"orient":0.000,"lat":99999.000,"lon":99999.000,"alt":99999.000}
{"class":"TPV","device":"/dev/ttyS3","mode":1,"time":"1980-01-06T00:23:06.868Z","ept":0.005}
{"class":"GST","device":"/dev/ttyS3","time":"1980-01-06T01:01:34.868Z","rms":0.000,"major":99999.000,"minor":99999.000,"orient":0.000,"lat":99999.000,"lon":99999.000,"alt":99999.000}
{"class":"TPV","device":"/dev/ttyS3","mode":1,"time":"1980-01-06T00:23:07.868Z","ept":0.005}
{"class":"GST","device":"/dev/ttyS3","time":"1980-01-06T01:01:36.868Z","rms":0.000,"major":99999.000,"minor":99999.000,"orient":0.000,"lat":99999.000,"lon":99999.000,"alt":99999.000}
